City_ID,City,Lat,Lng,Max Temp,Humidity,Cloudiness,Country,Wind Speed,Current Description
0,Tagab,34.855,69.6492,78.71,30,1,AF,4.21,clear sky
1,Camargo,27.6667,-105.1667,86.65,32,38,MX,16.04,scattered clouds
2,Kletskaya,49.3145,43.0584,76.01,51,12,RU,5.08,few clouds
3,Longyearbyen,78.2186,15.6401,44.44,76,75,SJ,13.8,light rain
4,Ushuaia,-54.8,-68.3,46.06,46,20,AR,18.41,few clouds
5,Albany,42.6001,-73.9662,74.52,75,86,US,7.52,overcast clouds
6,Rikitea,-23.1203,-134.9692,69.31,58,53,PF,22.48,broken clouds
7,Katsuura,35.1333,140.3,82.51,78,3,JP,5.26,clear sky
8,Castro,-24.7911,-50.0119,48.43,85,67,BR,2.39,broken clouds
9,Iracoubo,5.4802,-53.2011,78.98,81,52,GF,8.48,broken clouds
10,Bambous Virieux,-20.3428,57.7575,68.25,94,75,MU,11.5,broken clouds
11,Altagracia De Orituco,9.8601,-66.3814,74.41,96,84,VE,3.22,broken clouds
12,Bethel,41.3712,-73.414,74.8,79,90,US,8.05,overcast clouds
13,Busselton,-33.65,115.3333,53.98,60,92,AU,9.17,overcast clouds
14,Aranos,-24.1333,19.1167,52.72,30,0,NA,8.99,clear sky
15,Barkhan,29.8977,69.5256,83.88,53,8,PK,6.62,clear sky
16,Faanui,-16.4833,-151.75,77.76,68,36,PF,14.63,scattered clouds
17,Bluff,-46.6,168.3333,42.8,84,97,NZ,7.09,overcast clouds
18,Hobart,-42.8794,147.3294,40.12,86,0,AU,1.99,light rain
19,Ylivieska,64.0833,24.55,61.32,98,75,FI,3.31,broken clouds
20,Saint-Philippe,-21.3585,55.7679,67.55,77,49,RE,9.08,scattered clouds
21,Cape Town,-33.9258,18.4232,58.12,81,75,ZA,1.14,broken clouds
22,Puerto Ayora,-0.7393,-90.3518,78.76,88,51,EC,10.0,broken clouds
23,Beyneu,45.3167,55.2,88.56,14,4,KZ,8.41,clear sky
24,Margate,51.3813,1.3862,59.18,83,97,GB,1.99,overcast clouds
25,Caravelas,-17.7125,-39.2481,68.99,65,95,BR,8.9,overcast clouds
26,Mar Del Plata,-38.0023,-57.5575,46.09,31,90,AR,5.01,mist
27,Punta Arenas,-53.15,-70.9167,44.71,65,40,CL,19.57,scattered clouds
28,Pisco,-13.7,-76.2167,66.25,72,0,PE,11.5,clear sky
29,Baiyin,36.5583,104.2081,65.28,39,11,CN,5.35,few clouds
30,Vila Velha,-20.3297,-40.2925,71.96,64,20,BR,6.91,few clouds
31,Brae,60.3964,-1.353,49.91,79,100,GB,12.73,overcast clouds
32,Palauig,15.435,119.9045,81.39,88,100,PH,13.2,overcast clouds
33,Khatanga,71.9667,102.5,62.56,72,46,RU,9.64,scattered clouds
34,Muisne,0.6,-80.0333,84.31,82,60,EC,11.05,broken clouds
35,Arraial Do Cabo,-22.9661,-42.0278,71.56,77,0,BR,8.05,clear sky
36,Kawalu,-7.3817,108.2082,70.47,97,89,ID,1.19,overcast clouds
37,Beringovskiy,63.05,179.3167,46.47,74,40,RU,16.71,scattered clouds
38,Barth,54.3635,12.7249,62.1,66,77,DE,12.62,broken clouds
39,Kahului,20.8947,-156.47,84.97,77,15,US,14.38,few clouds
40,Samarai,-10.6167,150.6667,77.09,65,88,PG,6.93,overcast clouds
41,Colares,38.7992,-9.4469,70.32,78,44,PT,4.0,scattered clouds
42,Ponta Do Sol,32.6667,-17.1,72.23,72,1,PT,7.31,clear sky
43,Arlit,18.7369,7.3853,97.68,23,43,NE,5.57,scattered clouds
44,Namibe,-15.1961,12.1522,69.28,82,65,AO,1.63,broken clouds
45,Jamestown,42.097,-79.2353,70.02,65,46,US,5.99,scattered clouds
46,Kingston,17.997,-76.7936,83.35,84,75,JM,17.27,broken clouds
47,Abancay,-13.6339,-72.8814,61.57,62,88,PE,7.23,overcast clouds
48,Sao Filipe,14.8961,-24.4956,76.01,76,10,CV,6.38,clear sky
49,Jeremie,18.65,-74.1167,85.39,72,98,HT,4.79,overcast clouds
50,Keti Bandar,24.1447,67.4497,81.46,84,100,PK,22.41,overcast clouds
51,Gobo,33.8833,135.15,82.38,80,55,JP,7.09,broken clouds
52,Hilo,19.7297,-155.09,80.8,79,75,US,1.99,light rain
53,Provideniya,64.3833,-173.3,42.91,75,90,RU,20.13,light rain
54,Yaypan,40.3758,70.8156,80.89,29,61,UZ,1.66,broken clouds
55,Atambua,-9.1061,124.8925,69.66,88,45,ID,5.23,scattered clouds
56,Kavaratti,10.5669,72.642,82.08,77,77,IN,15.86,broken clouds
57,Lafia,8.4833,8.5167,72.19,96,100,NG,4.85,overcast clouds
58,Bilma,18.6853,12.9164,95.83,10,0,NE,4.9,clear sky
59,Vardo,70.3705,31.1107,53.8,96,100,NO,8.7,light rain
60,Weligama,5.9667,80.4167,77.99,87,100,LK,9.42,overcast clouds
61,Lagoa,39.05,-27.9833,72.12,95,43,PT,16.15,scattered clouds
62,Tuktoyaktuk,69.4541,-133.0374,71.6,64,75,CA,10.36,broken clouds
63,Port Alfred,-33.5906,26.891,60.84,83,36,ZA,25.93,scattered clouds
64,Bredasdorp,-34.5322,20.0403,58.32,72,83,ZA,4.61,broken clouds
65,Lorengau,-2.0226,147.2712,84.27,73,35,PG,11.03,scattered clouds
66,Tateyama,34.9833,139.8667,84.97,75,2,JP,4.74,clear sky
67,Port Elizabeth,-33.918,25.5701,61.09,72,90,ZA,27.63,overcast clouds
68,Irbit,57.6705,63.071,57.76,95,1,RU,6.73,clear sky
69,Leningradskiy,69.3833,178.4167,35.35,94,100,RU,18.5,light rain
70,Tosya,41.0155,34.0401,63.27,68,0,TR,1.74,clear sky
71,Deniliquin,-35.5333,144.9667,39.0,83,0,AU,7.2,clear sky
72,Bulgan,48.8125,103.5347,56.66,99,100,MN,3.27,overcast clouds
73,Luganville,-15.5333,167.1667,74.21,57,47,VU,7.85,scattered clouds
74,Westport,41.1415,-73.3579,76.08,61,59,US,4.0,broken clouds
75,Carauari,-4.8828,-66.8958,81.27,53,36,BR,1.77,scattered clouds
76,Ust-Kuyga,70.0167,135.6,57.72,51,0,RU,2.75,clear sky
77,Kailua,21.4022,-157.7394,84.15,59,40,US,16.11,scattered clouds
78,Airai,-8.9266,125.4092,56.1,85,23,TL,2.82,few clouds
79,Coquimbo,-29.9533,-71.3436,58.73,82,0,CL,11.5,clear sky
80,College,64.8569,-147.8028,74.28,54,75,US,3.44,broken clouds
81,Sur,22.5667,59.5289,89.64,55,100,OM,14.16,overcast clouds
82,Kimbe,-5.5502,150.1429,79.36,78,45,PG,3.65,scattered clouds
83,Hervey Bay,-25.2986,152.8535,66.02,94,3,AU,3.0,clear sky
84,Grindavik,63.8424,-22.4338,53.56,93,90,IS,5.75,overcast clouds
85,Bonfim,3.0833,-59.95,77.09,85,89,BR,5.32,overcast clouds
86,Lavrentiya,65.5833,-171.0,41.14,84,100,RU,12.68,light rain
87,Mataura,-46.1927,168.8643,42.48,95,80,NZ,2.82,broken clouds
88,Barrow,71.2906,-156.7887,45.68,79,100,US,20.11,overcast clouds
89,Gigmoto,13.7796,124.39,81.14,80,100,PH,7.99,overcast clouds
90,Tiksi,71.6872,128.8694,47.37,71,20,RU,4.52,few clouds
91,Saskylakh,71.9167,114.0833,72.07,46,0,RU,3.38,clear sky
92,Maningrida,-12.0667,134.2667,68.7,91,15,AU,6.91,few clouds
93,Tomball,30.0972,-95.6161,96.08,53,99,US,3.0,overcast clouds
94,Chokurdakh,70.6333,147.9167,40.77,66,30,RU,8.1,scattered clouds
95,Nioro,13.35,-15.75,76.44,90,64,GM,7.4,broken clouds
96,Yellowknife,62.456,-114.3525,87.33,28,20,CA,4.61,few clouds
97,Chuy,-33.6971,-53.4616,49.62,93,23,UY,5.77,few clouds
98,Hirado,33.3597,129.5531,78.39,85,89,JP,8.12,overcast clouds
99,Dikson,73.5069,80.5464,39.7,99,99,RU,8.08,overcast clouds
100,Flin Flon,54.7682,-101.865,84.04,32,1,CA,5.75,smoke
101,Champasak,14.75,106.0,73.26,98,100,LA,0.04,overcast clouds
102,Shumskiy,54.8318,99.1328,54.66,98,100,RU,4.41,light rain
103,New Norfolk,-42.7826,147.0587,39.76,83,20,AU,2.46,few clouds
104,Severo-Kurilsk,50.6789,156.125,55.53,73,0,RU,14.61,clear sky
105,Butaritari,3.0707,172.7902,83.17,69,10,KI,10.38,clear sky
106,Jumla,29.2747,82.1838,63.88,93,99,NP,0.22,overcast clouds
107,Milkovo,54.7167,158.6167,59.45,55,26,RU,3.33,scattered clouds
108,Pevek,69.7008,170.3133,33.46,97,100,RU,14.38,overcast clouds
109,Cabra,37.4725,-4.4421,74.66,28,51,ES,3.74,broken clouds
110,Ochamchira,42.7121,41.4721,72.07,91,6,GE,4.14,clear sky
111,Tasiilaq,65.6145,-37.6368,42.71,76,38,GL,4.83,scattered clouds
112,Itamaraca,-7.7478,-34.8256,78.85,77,0,BR,16.13,clear sky
113,Rawson,-43.3002,-65.1023,58.73,35,26,AR,9.84,scattered clouds
114,Upernavik,72.7868,-56.1549,42.84,80,23,GL,12.37,few clouds
115,Mogadishu,2.0371,45.3438,75.92,85,65,SO,18.34,light rain
116,Lebrija,36.9208,-6.0753,73.62,68,0,ES,5.75,clear sky
117,Kalmunai,7.4167,81.8167,80.47,74,100,LK,3.09,overcast clouds
118,Derzhavinsk,51.1,66.3167,74.55,52,70,KZ,6.26,broken clouds
119,Olafsvik,64.8945,-23.7142,53.85,92,100,IS,1.7,overcast clouds
120,Thompson,55.7435,-97.8558,84.36,32,20,CA,12.66,few clouds
121,Broome,42.2506,-75.833,63.01,96,90,US,3.44,mist
122,Waipawa,-41.4122,175.5153,48.45,76,94,NZ,3.76,overcast clouds
123,Ribeira Grande,38.5167,-28.7,73.29,94,59,PT,14.67,broken clouds
124,Vaini,-21.2,-175.2,73.56,78,20,TO,20.71,few clouds
125,Rio Grande,-32.035,-52.0986,51.91,91,22,BR,6.02,few clouds
126,Kapaa,22.0752,-159.319,84.18,78,90,US,4.0,overcast clouds
127,Dali,25.7,100.1833,60.8,85,29,CN,2.26,scattered clouds
128,Fairbanks,64.8378,-147.7164,74.3,54,75,US,3.44,broken clouds
129,Toktogul,41.8708,72.9402,71.71,47,100,KG,0.36,overcast clouds
130,Atuona,-9.8,-139.0333,77.11,69,31,PF,11.18,scattered clouds
131,Luderitz,-26.6481,15.1594,65.52,37,0,NA,5.95,clear sky
132,Nome,64.5011,-165.4064,53.17,87,90,US,13.8,light rain
133,Cherskiy,68.75,161.3,36.93,82,97,RU,18.99,overcast clouds
134,Port Lincoln,-34.7333,135.8667,52.34,50,19,AU,25.59,few clouds
135,Qaqortoq,60.7167,-46.0333,47.77,85,100,GL,3.44,light rain
136,Salalah,17.0151,54.0924,75.38,92,100,OM,5.91,overcast clouds
137,Bengkulu,-3.8004,102.2655,73.87,89,97,ID,4.21,overcast clouds
138,Jinxiang,27.4327,120.6062,78.8,91,100,CN,5.57,light rain
139,Constitucion,-35.3333,-72.4167,55.38,66,0,CL,10.78,clear sky
140,Lethem,3.3803,-59.7968,76.57,87,95,GY,5.35,overcast clouds
141,Matagami,49.7502,-77.6328,64.51,55,40,CA,13.8,scattered clouds
142,Torbay,47.6666,-52.7314,68.77,68,20,CA,21.85,few clouds
143,Kashan,33.9831,51.4364,89.89,13,99,IR,13.35,overcast clouds
144,Comodoro Rivadavia,-45.8667,-67.5,66.06,19,0,AR,18.41,clear sky
145,Nikolskoye,59.7035,30.7861,63.01,91,26,RU,4.9,scattered clouds
146,Muros,42.7762,-9.0603,64.9,92,100,ES,6.49,overcast clouds
147,Aquidauana,-20.4711,-55.7872,69.8,46,61,BR,6.76,broken clouds
148,Kui Buri,12.0828,99.8543,86.99,77,100,TH,10.83,overcast clouds
149,Pacific Grove,36.6177,-121.9166,84.81,75,32,US,7.0,scattered clouds
150,Praia,14.9215,-23.5087,77.54,69,75,CV,9.22,broken clouds
151,Viedma,-40.8135,-62.9967,52.9,45,1,AR,14.14,clear sky
152,Bairiki,1.3292,172.9752,84.2,70,20,KI,5.75,few clouds
153,Dingle,10.9995,122.6711,77.95,87,100,PH,8.9,overcast clouds
154,Vazante,-17.9869,-46.9078,69.84,46,21,BR,2.1,few clouds
155,Butterworth,5.3991,100.3638,75.99,93,20,MY,2.3,few clouds
156,Sisimiut,66.9395,-53.6735,54.95,61,0,GL,2.24,clear sky
157,Belance,16.1833,121.25,70.77,94,100,PH,5.88,light rain
158,Avarua,-21.2078,-159.775,75.25,94,75,CK,12.66,light rain
159,Alvaraes,-3.2208,-64.8042,80.47,61,62,BR,3.8,broken clouds
160,Sidney,-33.8679,151.2073,50.29,83,20,AU,3.0,few clouds
161,East London,-33.0153,27.9116,62.8,60,29,ZA,19.93,scattered clouds
162,Igarka,67.4667,86.5833,54.99,96,97,RU,5.1,overcast clouds
163,Codrington,-38.2667,141.9667,43.18,84,0,AU,16.02,clear sky
164,Bara,10.3744,10.7288,73.36,95,100,NG,1.92,moderate rain
165,Kavieng,-2.5744,150.7967,82.71,75,3,PG,9.24,clear sky
166,Cozumel,20.5083,-86.9458,89.94,72,12,MX,4.0,few clouds
167,Hofn,64.2539,-15.2082,53.71,94,99,IS,4.76,overcast clouds
168,Okitipupa,6.5047,4.7839,73.56,95,100,NG,2.66,overcast clouds
169,South Lake Tahoe,38.9332,-119.9844,86.63,36,65,US,3.0,broken clouds
170,Najran,17.4924,44.1277,86.65,38,100,SA,7.31,overcast clouds
171,Kruisfontein,-34.0033,24.7314,56.88,77,86,ZA,17.05,overcast clouds
172,Udachnyy,66.4167,112.4,70.16,42,30,RU,4.21,scattered clouds
173,Albanel,48.8832,-72.4487,71.58,53,92,CA,3.44,overcast clouds
174,Maldonado,-34.6667,-54.9167,46.22,90,5,UY,3.62,clear sky
175,Guerrero Negro,27.9769,-114.0611,83.82,54,3,MX,13.38,clear sky
176,Dhanwar,24.4167,85.9833,77.61,86,91,IN,4.12,overcast clouds
177,Porto Novo,6.4965,2.6036,78.62,87,45,BJ,5.08,scattered clouds
178,Camacha,33.0833,-16.3333,68.76,78,20,PT,13.8,few clouds
179,Les Cayes,18.2,-73.75,84.31,73,67,HT,9.31,broken clouds
180,Cervo,43.6702,-7.4101,64.96,83,14,ES,3.62,few clouds
181,Ancud,-41.8697,-73.8203,49.53,80,59,CL,3.62,broken clouds
182,Aklavik,68.2191,-135.0107,83.23,36,98,CA,18.03,overcast clouds
183,Ocampo,21.65,-101.5,76.28,32,34,MX,12.3,scattered clouds
184,Ulladulla,-35.35,150.4667,44.87,88,1,AU,4.18,clear sky
185,Carnarvon,-24.8667,113.6333,50.07,66,0,AU,11.5,clear sky
186,Tromso,69.6496,18.957,46.42,76,75,NO,10.36,broken clouds
187,Zima,53.9202,102.0442,55.78,97,100,RU,10.38,light rain
188,Marion,39.7684,-86.1555,79.34,49,75,US,9.22,broken clouds
189,Guarapari,-20.6667,-40.4975,71.91,72,7,BR,2.68,clear sky
190,Londa,15.4691,74.5191,69.44,93,98,IN,10.6,overcast clouds
191,Krasnovishersk,60.4078,57.082,51.93,97,0,RU,2.28,clear sky
192,Clifton,40.8584,-74.1638,76.64,73,75,US,1.01,broken clouds
193,Tammisaari,59.9736,23.4339,61.29,86,95,FI,12.33,overcast clouds
194,Kabansk,52.0486,106.6528,55.89,86,100,RU,0.4,overcast clouds
195,Kudahuvadhoo,2.6708,72.8944,82.22,72,100,MV,6.96,overcast clouds
196,Poum,-20.2333,164.0167,68.9,57,2,NC,13.31,clear sky
197,Beloha,-25.1667,45.05,66.25,58,0,MG,8.39,clear sky
198,Glen Allen,37.666,-77.5064,85.33,72,85,US,1.99,overcast clouds
199,Phetchaburi,12.9667,99.5833,85.3,76,100,TH,7.38,overcast clouds
200,Lodja,-3.4833,23.4333,73.71,35,87,CD,1.16,overcast clouds
201,Galveston,29.3669,-94.9669,93.15,76,100,US,6.85,overcast clouds
202,Mahebourg,-20.4081,57.7,68.29,94,75,MU,11.5,broken clouds
203,Pathein,16.7833,94.7333,77.13,92,100,MM,6.73,overcast clouds
204,Almeria,37.1667,-2.3333,71.29,75,98,ES,1.34,overcast clouds
205,Barrhead,55.7992,-4.3929,59.02,77,99,GB,1.99,overcast clouds
206,Tomari,47.7658,142.0683,63.7,75,13,RU,4.99,few clouds
207,Kodiak,57.79,-152.4072,57.72,88,93,US,5.17,overcast clouds
208,Haines Junction,60.7522,-137.5108,78.75,31,20,CA,4.61,few clouds
209,Qaanaaq,77.484,-69.3632,42.93,82,89,GL,1.1,overcast clouds
210,Ofunato,39.0717,141.7167,77.07,94,48,JP,5.97,scattered clouds
211,Hay River,60.8156,-115.7999,82.38,44,75,CA,6.91,broken clouds
212,Vanderhoof,54.0166,-124.0198,88.38,31,100,CA,0.63,overcast clouds
213,Eenhana,-17.4667,16.3333,60.55,37,0,NA,7.34,clear sky
214,Sioux Lookout,50.1001,-91.917,75.58,38,75,CA,9.22,broken clouds
215,Boa Vista,2.8197,-60.6733,76.98,83,75,BR,4.61,broken clouds
216,Santiago,-33.4569,-70.6483,80.04,13,0,CL,3.44,clear sky
217,Alice Springs,-23.7,133.8833,53.15,66,80,AU,9.22,broken clouds
218,Goderich,43.7501,-81.7165,66.9,77,66,CA,17.27,broken clouds
219,Narsaq,60.9167,-46.05,51.75,70,100,GL,3.71,light rain
220,Sault Sainte Marie,46.5168,-84.3333,67.82,64,75,CA,17.27,broken clouds
221,Borogontsy,62.6683,131.1683,66.58,40,37,RU,8.19,scattered clouds
222,Norman Wells,65.282,-126.8329,86.04,28,75,CA,4.61,smoke
223,Sao Joao Da Barra,-21.6403,-41.0511,64.49,66,92,BR,8.23,overcast clouds
224,Luanda,-8.8368,13.2343,73.4,88,75,AO,5.75,broken clouds
225,Eureka,40.8021,-124.1637,86.67,70,58,US,3.0,broken clouds
226,Maragogi,-9.0122,-35.2225,73.74,79,14,BR,14.9,few clouds
227,Yamada,39.4667,141.95,77.56,91,3,JP,9.75,clear sky
228,Lata,40.1629,-8.3327,67.05,99,100,PT,1.5,overcast clouds
229,Chigorodo,7.6664,-76.6811,80.33,91,98,CO,4.83,overcast clouds
230,Georgetown,5.4112,100.3354,75.88,92,20,MY,2.3,few clouds
231,Mokobeng,-22.9965,27.6678,57.15,34,0,BW,4.76,clear sky
232,Tshikapa,-6.4167,20.8,74.46,25,55,CD,2.93,broken clouds
233,Martapura,-3.4167,114.85,73.49,100,20,ID,1.14,few clouds
234,Tombouctou,20.0,-3.0,94.77,30,9,ML,6.69,clear sky
235,Ponot,8.452,123.0222,78.12,85,98,PH,5.88,overcast clouds
236,Lebu,-37.6167,-73.65,50.88,75,37,CL,19.08,scattered clouds
237,Maumere,-8.6199,122.2111,78.1,83,86,ID,8.59,overcast clouds
238,Cidreira,-30.1811,-50.2056,57.18,91,88,BR,7.0,overcast clouds
239,Coihaique,-45.5752,-72.0662,53.55,58,90,CL,6.91,overcast clouds
240,Pundaguitan,6.3711,126.1689,83.03,76,98,PH,6.42,moderate rain
241,Plettenberg Bay,-34.0527,23.3716,59.54,75,72,ZA,9.69,broken clouds
242,Mayo,38.8876,-76.5119,82.65,90,90,US,8.01,overcast clouds
243,Umm Lajj,25.0213,37.2685,87.58,48,5,SA,5.28,clear sky
244,San Patricio,28.017,-97.5169,97.52,48,99,US,16.55,overcast clouds
245,Zacualpan,21.25,-105.1667,90.72,68,9,MX,5.97,clear sky
246,Lompoc,34.6391,-120.4579,90.12,64,20,US,8.99,few clouds
247,Juba,4.8517,31.5825,72.75,79,97,SS,3.11,overcast clouds
248,Alexandria,31.2156,29.9553,81.14,89,0,EG,6.91,clear sky
249,Caconda,-13.7333,15.0667,58.39,30,2,AO,1.72,clear sky
250,Kargil,34.5667,76.1,56.39,58,1,IN,6.46,clear sky
251,Hithadhoo,-0.6,73.0833,81.07,72,91,MV,6.98,overcast clouds
252,Halifax,44.6453,-63.5724,73.29,68,1,CA,5.01,clear sky
253,Baglan,36.1307,68.7083,79.34,21,0,AF,3.91,clear sky
254,Saldanha,-33.0117,17.9442,48.25,88,71,ZA,8.93,broken clouds
255,Nerang,-27.9833,153.3333,67.66,93,1,AU,1.01,clear sky
256,Shebunino,46.4339,141.8603,64.85,82,75,RU,14.16,broken clouds
257,Naliya,23.2667,68.8333,81.03,82,100,IN,19.75,overcast clouds
258,Ilulissat,69.2167,-51.1,51.39,58,0,GL,10.11,clear sky
259,Tocopilla,-22.092,-70.1979,64.15,67,84,CL,5.41,broken clouds
260,Mapastepec,15.4333,-92.9,86.11,77,99,MX,3.24,overcast clouds
261,Ambon,-3.6954,128.1814,75.34,94,40,ID,8.05,scattered clouds
262,Nouadhibou,20.931,-17.0347,71.58,83,0,MR,11.5,clear sky
263,Isangel,-19.55,169.2667,68.11,88,75,VU,0.0,broken clouds
264,Katherine,-14.4667,132.2667,66.52,77,11,AU,1.14,few clouds
265,Yar-Sale,66.8333,70.8333,54.68,96,100,RU,16.93,light rain
266,Half Moon Bay,37.4636,-122.4286,88.92,65,33,US,1.01,scattered clouds
267,Mount Gambier,-37.8333,140.7667,44.51,87,14,AU,10.36,few clouds
268,Hasaki,35.7333,140.8333,79.29,84,13,JP,6.29,few clouds
269,Quatre Cocos,-20.2078,57.7625,68.11,68,52,MU,15.61,broken clouds
270,Hermanus,-34.4187,19.2345,57.9,79,94,ZA,2.19,overcast clouds
271,Shikhazany,55.5605,47.393,65.03,67,60,RU,5.12,broken clouds
272,Khartoum,15.5518,32.5324,88.02,47,67,SD,1.01,broken clouds
273,Santa Rosa,14.3122,121.1114,83.1,83,100,PH,14.7,overcast clouds
274,Jieshi,22.8134,115.8257,83.95,87,100,CN,6.02,overcast clouds
275,Monrovia,6.3005,-10.7969,77.13,77,100,LR,9.22,overcast clouds
276,Dedovichi,57.5517,29.9502,61.38,75,100,RU,5.21,light rain
277,Tautira,-17.7333,-149.15,80.62,63,43,PF,7.74,scattered clouds
278,Sawtell,-30.3833,153.1,63.19,77,94,AU,11.5,overcast clouds
279,Cockburn Town,21.4612,-71.1419,85.96,70,40,TC,18.41,scattered clouds
280,Husavik,66.0449,-17.3389,55.31,73,59,IS,2.15,broken clouds
281,Zhangjiakou,40.81,114.8794,61.29,78,17,CN,4.0,few clouds
282,Boiu Mare,47.4,23.5833,68.47,51,87,RO,1.54,overcast clouds
283,Souillac,-20.5167,57.5167,68.38,94,75,MU,11.5,broken clouds
284,Acarau,-2.8856,-40.12,78.46,77,83,BR,13.4,broken clouds
285,Canmore,51.0834,-115.3521,91.24,22,99,CA,4.61,overcast clouds
286,Kudat,6.8837,116.8477,77.29,94,40,MY,5.75,scattered clouds
287,Benguela,-12.5763,13.4055,70.43,88,3,AO,3.11,clear sky
288,Iqaluit,63.7506,-68.5145,53.33,76,90,CA,3.0,overcast clouds
289,Chicama,-7.8447,-79.1469,64.94,68,4,PE,8.95,clear sky
290,Waynesville,35.4887,-82.9887,81.27,79,90,US,3.0,overcast clouds
291,Awjilah,29.1081,21.2869,87.73,24,3,LY,10.67,clear sky
292,Aksu,41.1231,80.2644,75.02,18,62,CN,5.7,broken clouds
293,Marau,-28.4492,-52.2,50.09,80,5,BR,1.81,clear sky
294,Calama,-22.4667,-68.9333,68.49,14,93,CL,18.41,overcast clouds
295,Corn Island,12.1694,-83.0418,82.13,81,40,NI,18.66,scattered clouds
296,Portland,45.5234,-122.6762,96.21,39,20,US,1.01,few clouds
297,Berlevag,70.8578,29.0864,46.63,96,100,NO,18.03,light rain
298,Victoria,22.2855,114.1577,85.32,89,93,HK,3.0,overcast clouds
299,Saint-Francois,46.4154,3.9054,60.24,81,0,FR,2.3,clear sky
300,Almaznyy,48.0448,40.045,69.94,53,58,RU,7.16,broken clouds
301,Touros,-5.1989,-35.4608,79.7,74,5,BR,19.42,clear sky
302,San Cristobal,7.7669,-72.225,82.58,89,76,VE,6.13,broken clouds
303,Little Chute,44.28,-88.3184,75.51,55,75,US,3.0,broken clouds
304,Puerto Escondido,15.85,-97.0667,86.68,68,68,MX,5.7,broken clouds
305,Benalla,-36.55,145.9833,33.85,90,0,AU,4.88,clear sky
306,Tabou,4.423,-7.3528,76.6,80,87,CI,6.78,overcast clouds
307,Tevaitoa,-16.7833,-151.5,77.2,69,40,PF,14.67,scattered clouds
308,Jimo,36.3897,120.4622,74.98,94,20,CN,2.24,mist
309,Balkhash,46.844,74.9804,77.99,39,4,KZ,10.2,clear sky
310,Maine-Soroa,13.2114,12.0241,81.07,68,90,NE,11.63,overcast clouds
311,Yaan,7.3833,8.5667,71.62,98,100,NG,4.43,moderate rain
312,Oudtshoorn,-33.5907,22.2014,53.96,87,12,ZA,1.7,few clouds
313,Moron,-34.6534,-58.6198,56.01,66,0,AR,2.55,clear sky
314,Altay,47.8667,88.1167,57.54,57,26,CN,3.69,scattered clouds
315,Biskamzha,53.4497,89.5272,50.58,89,8,RU,1.03,clear sky
316,Vung Tau,10.346,107.0843,80.29,84,98,VN,16.08,overcast clouds
317,Hambantota,6.1241,81.1185,77.34,100,0,LK,6.91,clear sky
318,Vila Franca Do Campo,37.7167,-25.4333,72.01,96,87,PT,8.81,overcast clouds
319,Roura,4.7263,-52.3274,84.11,74,0,GF,3.44,clear sky
320,Anadyr,64.75,177.4833,48.7,76,40,RU,2.24,light rain
321,Popondetta,-8.7537,148.2534,77.02,73,99,PG,1.01,overcast clouds
322,Urusha,54.05,122.9,49.69,95,30,RU,2.42,scattered clouds
323,Kiyasovo,56.3491,53.1244,60.82,68,98,RU,4.72,overcast clouds
324,Maryborough,-25.5333,152.7,66.11,88,21,AU,5.91,few clouds
325,Fortuna,40.5982,-124.1573,86.41,69,20,US,3.0,few clouds
326,Adrar,20.5022,-10.0711,95.02,25,29,MR,8.43,scattered clouds
327,Tayga,56.06,85.6197,53.26,96,80,RU,3.58,broken clouds
328,Srednekolymsk,67.45,153.6833,39.13,69,100,RU,10.69,overcast clouds
329,Kieta,-6.2167,155.6333,80.53,79,9,PG,2.26,clear sky
330,Chapais,49.7834,-74.8492,62.38,62,98,CA,7.63,overcast clouds
331,Bathsheba,13.2167,-59.5167,84.81,74,20,BB,10.36,few clouds
332,Laguna,38.421,-121.4238,106.25,30,1,US,5.01,clear sky
333,Hamilton,39.1834,-84.5333,80.89,68,27,US,4.0,scattered clouds
334,Marsa Matruh,31.3525,27.2453,80.8,89,0,EG,9.22,clear sky
335,Vostok,46.4856,135.8833,68.32,76,41,RU,2.59,scattered clouds
336,Kaitangata,-46.2817,169.8464,45.75,93,32,NZ,4.5,scattered clouds
337,Altamira,-3.2033,-52.2064,78.89,94,20,BR,0.0,few clouds
338,Doha,25.2867,51.5333,94.98,63,0,QA,0.0,clear sky
339,Tenza,5.0766,-73.4208,63.72,96,93,CO,3.87,overcast clouds
340,Havre-Saint-Pierre,50.2334,-63.5986,61.16,77,40,CA,16.11,scattered clouds
341,Ulaangom,49.9811,92.0667,56.62,59,91,MN,2.48,overcast clouds
342,Kitgum,3.2783,32.8867,67.66,85,100,UG,3.36,overcast clouds
343,Fujin,47.26,132.0322,72.19,68,100,CN,8.61,overcast clouds
344,Rurrenabaque,-14.4413,-67.5278,80.49,54,75,BO,4.61,broken clouds
345,Gasa,31.5,34.4667,80.58,64,0,PS,2.33,clear sky
346,Salamiyah,35.0113,37.0532,77.54,51,0,SY,9.82,clear sky
347,Coruripe,-10.1256,-36.1756,72.93,75,7,BR,14.9,clear sky
348,Maceio,-9.6658,-35.7353,74.64,78,75,BR,8.05,broken clouds
349,Nabire,-3.3667,135.4833,75.56,92,87,ID,3.22,overcast clouds
350,Dakar,14.6937,-17.4441,82.53,78,20,SN,4.61,few clouds
351,Klaksvik,62.2266,-6.589,47.32,82,57,FO,7.47,broken clouds
352,Nuuk,64.1835,-51.7216,51.1,70,100,GL,6.58,overcast clouds
353,Mikkeli,61.6886,27.2723,59.11,94,0,FI,3.44,clear sky
354,Lewiston,44.1003,-70.2148,72.55,61,90,US,1.99,overcast clouds
355,Ordzhonikidze,52.4411,61.7408,68.9,71,17,KZ,5.35,few clouds
356,Aykhal,66.0,111.5,68.59,43,59,RU,3.89,broken clouds
357,Sitka,57.0531,-135.33,64.29,72,75,US,5.75,broken clouds
358,Mandalgovi,45.7625,106.2708,64.35,48,100,MN,4.5,overcast clouds
359,Vicosa Do Ceara,-3.5622,-41.0922,76.84,39,99,BR,8.59,overcast clouds
360,Nhulunbuy,-12.2333,136.7667,70.41,94,24,AU,0.0,few clouds
361,Meulaboh,4.1363,96.1285,74.75,89,100,ID,5.32,overcast clouds
362,Moerai,-22.4333,-151.3333,74.35,76,94,PF,19.28,overcast clouds
363,Selizharovo,56.8519,33.4487,60.46,68,94,RU,4.52,overcast clouds
364,Manggar,-2.8833,108.2667,80.6,75,76,ID,9.73,broken clouds
365,Gamboula,4.1178,15.1393,68.14,98,100,CF,0.51,moderate rain
366,Raudeberg,61.9875,5.1352,52.86,76,10,NO,15.68,clear sky
367,Alofi,-19.0595,-169.9187,78.69,69,60,NU,17.27,broken clouds
368,Richards Bay,-28.783,32.0377,62.6,60,4,ZA,4.18,clear sky
369,Pilikwe,-22.799,27.1938,57.16,31,0,BW,3.96,clear sky
370,Port-Cartier,50.0334,-66.8654,65.75,66,92,CA,2.3,overcast clouds
371,Wilmington,34.2257,-77.9447,88.99,79,42,US,4.0,scattered clouds
372,Artemovsk,49.8406,36.0417,75.54,57,63,UA,5.03,broken clouds
373,Ranau,5.9538,116.6641,68.65,94,100,MY,2.35,overcast clouds
374,Raga,8.4596,25.678,67.96,95,94,SS,5.1,overcast clouds
375,Tura,25.5198,90.2201,73.54,98,91,IN,3.27,light rain
376,Maua,-23.6678,-46.4614,58.8,76,99,BR,5.84,overcast clouds
377,Zhanaozen,43.3,52.8,83.79,18,0,KZ,1.72,clear sky
378,Tula,54.2044,37.6111,68.58,69,61,RU,2.73,broken clouds
379,Macklin,52.3334,-109.9348,95.34,18,84,CA,8.43,broken clouds
380,Yukhnov,54.7444,35.2297,63.82,94,100,RU,3.04,overcast clouds
381,Wallaceburg,42.593,-82.3885,73.0,63,23,CA,16.98,few clouds
382,Saint-Ambroise,48.5501,-71.3324,71.92,53,73,CA,5.75,light rain
383,Verkhnevilyuysk,63.4453,120.3167,64.36,66,100,RU,4.18,overcast clouds
384,Brufut,13.3814,-16.7518,78.89,100,75,GM,0.0,broken clouds
385,Nemuro,43.3236,145.575,65.82,99,100,JP,8.52,overcast clouds
386,Rancho Veloz,22.8806,-80.3917,86.43,65,28,CU,15.19,scattered clouds
387,Askarovo,53.3372,58.5089,61.75,67,81,RU,6.71,broken clouds
388,Hami,42.8,93.45,68.02,46,66,CN,5.53,broken clouds
389,Taltal,-25.4,-70.4833,61.47,71,22,CL,2.53,few clouds
390,Boli,45.7667,130.5167,76.41,76,45,CN,7.52,scattered clouds
391,Sembakung,3.8167,117.25,76.93,99,100,ID,3.2,light rain
392,Nishihara,26.1842,127.7558,81.68,89,75,JP,19.57,broken clouds
393,Rincon,32.296,-81.2354,95.45,55,40,US,8.05,thunderstorm
394,Northam,51.0333,-4.2167,58.14,89,10,GB,7.78,clear sky
395,Ambanja,-13.6833,48.45,67.84,79,2,MG,2.93,clear sky
396,Saint Austell,50.3383,-4.7658,57.02,76,10,GB,6.91,clear sky
397,Mtambile,-5.3833,39.7,74.53,81,52,TZ,13.91,broken clouds
398,Newport,51.5877,-2.9984,61.83,81,77,GB,7.4,broken clouds
399,Gat,31.61,34.7642,84.4,54,0,IL,2.75,clear sky
400,Bubaque,11.2833,-15.8333,79.65,81,87,GW,19.62,light rain
401,Yinchuan,38.4681,106.2731,74.77,25,71,CN,7.52,broken clouds
402,Kalach-Na-Donu,48.691,43.5264,78.12,39,13,RU,6.06,few clouds
403,Inta,66.0317,60.1659,49.53,94,66,RU,10.58,broken clouds
404,Port Augusta,-32.5,137.7667,39.34,53,0,AU,12.93,clear sky
405,Wuwei,37.9281,102.6414,71.08,38,80,CN,5.97,broken clouds
406,Ardakan,32.31,54.0175,88.18,14,24,IR,6.08,few clouds
407,La Asuncion,11.0333,-63.8628,81.27,78,2,VE,15.37,clear sky
408,Port Macquarie,-31.4333,152.9167,59.9,75,91,AU,7.49,overcast clouds
409,Magadan,59.5667,150.8,53.01,53,2,RU,19.75,clear sky
410,Pampa,35.5362,-100.9599,75.11,88,90,US,12.66,overcast clouds
411,Kautokeino,69.0125,23.0412,36.79,91,52,NO,5.57,broken clouds
412,Mandsaur,24.0667,75.0667,73.63,95,100,IN,18.01,moderate rain
413,Novyy Buyan,53.6861,50.0469,73.56,53,100,RU,5.99,overcast clouds
414,Makakilo City,21.3469,-158.0858,82.69,53,3,US,22.73,clear sky
415,Okhotsk,59.3833,143.3,61.72,52,0,RU,9.53,clear sky
416,Kapit,2.0167,112.9333,73.62,99,94,MY,1.72,overcast clouds
417,Orchard Homes,46.8633,-114.0484,99.28,31,35,US,4.0,scattered clouds
418,Amboasary,-25.0333,46.3833,67.84,82,0,MG,4.36,clear sky
419,Naze,28.3667,129.4833,79.72,86,89,JP,12.93,overcast clouds
420,Byron Bay,-28.65,153.6167,69.06,83,45,AU,11.99,scattered clouds
421,Lubao,14.9167,120.55,83.14,88,100,PH,10.07,overcast clouds
422,Rio Branco,-9.9747,-67.81,84.81,45,0,BR,5.75,clear sky
423,Nador,35.174,-2.9287,73.65,38,0,MA,6.91,clear sky
424,Ballina,-28.8667,153.5667,66.16,82,40,AU,8.05,scattered clouds
425,Bowen,-20.0167,148.2333,53.82,78,10,AU,5.93,clear sky
426,Abu Zabad,12.35,29.25,74.01,75,95,SD,10.25,overcast clouds
427,Chegdomyn,51.1167,133.0167,65.35,78,100,RU,1.01,overcast clouds
428,Newberry,34.2746,-81.6187,94.87,57,87,US,12.28,overcast clouds
429,Khor,47.8861,134.9464,68.65,71,6,RU,8.28,clear sky
430,Khandyga,62.6667,135.6,66.49,44,0,RU,5.19,clear sky
431,Bandarbeyla,9.4942,50.8122,82.24,62,14,SO,25.59,few clouds
432,Tari,12.4086,4.4914,78.44,79,100,NG,15.37,moderate rain
433,Katete,-0.7818,29.7544,66.36,48,83,UG,2.8,broken clouds
434,Mareeba,-17.0,145.4333,64.44,91,43,AU,2.71,scattered clouds
435,Vestmanna,62.1564,-7.1664,45.52,87,90,FO,5.75,overcast clouds
436,Orlik,52.5178,99.825,49.46,97,100,RU,4.92,moderate rain
437,Santa Cruz Do Capibaribe,-7.9575,-36.2047,66.96,81,33,BR,9.91,scattered clouds
438,Danville,36.586,-79.395,88.25,65,86,US,1.99,overcast clouds
439,Santa Barbara,34.7333,-120.0343,84.34,38,1,US,14.97,clear sky
440,Phonhong,18.5007,102.4166,75.79,95,100,LA,0.83,overcast clouds
441,Rudbar,30.15,62.6,85.64,15,0,AF,19.22,clear sky
442,Tessalit,20.1986,1.0114,87.06,40,6,ML,12.19,clear sky
443,Waddan,29.1614,16.139,86.76,23,0,LY,13.0,clear sky
444,Ixtapa,20.7,-105.2,90.23,70,8,MX,5.99,clear sky
445,Shaowu,27.3409,117.4831,75.31,96,59,CN,0.56,broken clouds
446,Nyagan,62.1406,65.3936,55.35,97,100,RU,4.16,light rain
447,Diffa,13.3154,12.6113,80.38,69,67,NE,10.83,broken clouds
448,Guymon,36.6828,-101.4816,78.75,39,100,US,6.89,overcast clouds
449,Lalmohan,22.3384,90.7419,79.77,88,100,BD,8.7,overcast clouds
450,Virginia Beach,36.8529,-75.978,83.1,84,93,US,1.01,overcast clouds
451,Mahibadhoo,3.7833,72.9667,81.91,76,100,MV,9.17,overcast clouds
452,Katangli,51.7102,143.2326,54.95,85,100,RU,7.43,overcast clouds
453,Formosa Do Rio Preto,-11.0483,-45.1931,74.8,42,45,BR,4.34,scattered clouds
454,Verkhoyansk,67.5447,133.385,60.51,42,0,RU,2.39,clear sky
455,Oussouye,12.485,-16.5469,80.69,88,90,SN,10.2,light rain
456,Davidson,36.1501,-86.7833,84.85,65,20,US,4.0,few clouds
457,Vilkaviskis,54.6517,23.0322,59.36,97,100,LT,4.56,overcast clouds
458,Pachino,36.7186,15.0907,89.6,56,0,IT,5.7,clear sky
459,Fort Nelson,58.8053,-122.7002,87.39,42,1,CA,4.61,smoke
460,Clyde River,70.4692,-68.5914,43.03,87,90,CA,18.41,overcast clouds
461,Kuryk,43.2,51.65,84.78,30,0,KZ,7.52,clear sky
462,Zaton,53.2936,83.8072,69.39,42,0,RU,8.95,clear sky
463,Itarema,-2.9248,-39.9167,78.58,77,80,BR,13.62,broken clouds
464,Itoman,26.1247,127.6694,82.42,89,75,JP,19.57,broken clouds
465,Los Palacios,22.5872,-83.2486,88.56,58,31,CU,5.32,scattered clouds
466,Aitape,-3.1374,142.3475,78.44,87,27,PG,3.89,scattered clouds
467,Chernyshevskiy,63.0128,112.4714,60.98,58,100,RU,4.85,overcast clouds
468,Vanavara,60.34,102.2797,54.48,65,39,RU,4.09,scattered clouds
469,Bontang,0.1333,117.5,76.26,92,60,ID,6.89,broken clouds
470,Labuhan,-6.8844,112.2051,76.37,78,11,ID,9.8,few clouds
471,Pombia,45.653,8.6336,66.02,86,0,IT,6.91,clear sky
472,Svetlogorsk,52.6333,29.7333,68.0,80,74,BY,5.79,broken clouds
473,Lobau,51.1,14.6667,61.88,91,100,DE,6.15,overcast clouds
474,Gifhorn,52.4833,10.55,60.58,89,75,DE,0.0,broken clouds
475,Rio Do Sul,-27.2142,-49.6431,57.9,98,82,BR,2.17,broken clouds
476,Waw,7.7029,27.9953,70.68,97,100,SS,3.83,overcast clouds
477,Port Blair,11.6667,92.75,81.82,81,100,IN,19.01,overcast clouds
478,Belmonte,-15.8631,-38.8828,68.5,70,89,BR,14.45,overcast clouds
479,Surgut,61.25,73.4167,59.18,100,40,RU,8.95,light intensity shower rain
480,Ambilobe,-13.2,49.05,67.8,81,5,MG,3.44,clear sky
481,Los Zacatones,22.95,-102.05,80.64,26,20,MX,13.8,few clouds
482,Honiara,-9.4333,159.95,80.31,76,40,SB,3.8,scattered clouds
483,Jiuquan,39.7432,98.5174,64.69,55,100,CN,8.9,light rain
484,Sambava,-14.2667,50.1667,68.18,88,96,MG,8.48,overcast clouds
485,Shingu,33.7333,135.9833,79.92,82,68,JP,3.15,broken clouds
486,Whyalla,-33.0333,137.5833,39.09,93,0,AU,5.75,clear sky
487,Padang,-0.9492,100.3543,74.71,91,98,ID,5.73,overcast clouds
488,Tucuma,-0.1833,-50.05,78.44,82,48,BR,4.41,scattered clouds
489,Buraydah,26.326,43.975,91.85,10,6,SA,2.98,clear sky
490,Lugoba,-6.45,38.3333,66.0,86,15,TZ,2.48,few clouds
491,Energetik,51.7445,58.7934,70.45,63,10,RU,2.93,clear sky
492,Na Wa,17.4897,104.1006,75.38,92,100,TH,4.07,overcast clouds
493,Brooks,50.5834,-111.8851,96.58,19,56,CA,9.22,broken clouds
494,Oranjemund,-28.55,16.4333,56.89,75,2,NA,7.76,clear sky
495,Inirida,3.8653,-67.9239,75.36,94,54,CO,2.75,broken clouds
496,Upata,8.0086,-62.3989,74.59,90,47,VE,1.99,scattered clouds
497,Campbellsville,37.3434,-85.3419,81.27,48,7,US,5.99,clear sky
498,Mudkhed,19.1667,77.5167,75.83,77,100,IN,16.2,overcast clouds
499,Noormarkku,61.5927,21.8685,58.78,100,75,FI,1.14,light intensity shower rain
500,Carutapera,-1.195,-46.02,75.06,88,76,BR,2.21,broken clouds
501,Avera,33.194,-82.5271,95.72,37,51,US,13.51,broken clouds
502,Bandrele,-12.9067,45.1914,73.15,78,0,YT,10.36,clear sky
503,Tainan,22.9908,120.2133,78.87,100,90,TW,2.3,overcast clouds
504,Singkang,2.1006,102.7994,76.89,93,27,MY,1.03,scattered clouds
505,Dalvik,65.9702,-18.5286,55.33,81,100,IS,2.3,overcast clouds
506,Bud,39.447,-86.1758,80.67,61,10,US,11.1,clear sky
507,Birin,26.8865,88.0718,64.31,99,100,NP,1.39,overcast clouds
508,Mananara,-16.1667,49.7667,66.02,94,89,MG,4.27,overcast clouds
509,Kaduna,10.5222,7.4383,68.45,98,100,NG,5.61,light rain
510,Majalaya,-7.3378,106.6069,75.16,88,37,ID,12.95,scattered clouds
511,Stornoway,58.2093,-6.3865,51.93,76,90,GB,5.75,overcast clouds
512,Ponnani,10.767,75.9252,76.32,84,76,IN,6.02,broken clouds
513,Palmer,42.1584,-72.3287,75.92,60,89,US,9.71,overcast clouds
514,Yurino,56.2942,46.3039,65.52,63,93,RU,6.67,overcast clouds
515,Nelson Bay,-32.7167,152.15,57.0,62,91,AU,8.9,overcast clouds
516,Misratah,32.3754,15.0925,85.6,53,0,LY,8.01,clear sky
517,Muravlenko,63.7898,74.523,58.35,67,100,RU,9.44,overcast clouds
518,Nanortalik,60.1432,-45.2371,48.63,80,100,GL,11.41,light rain
519,Vao,-22.6667,167.4833,66.47,58,59,NC,9.46,broken clouds
520,Batemans Bay,-35.7167,150.1833,40.91,92,11,AU,4.09,few clouds
521,Paamiut,61.994,-49.6678,47.34,90,100,GL,3.4,overcast clouds
522,Tortoli,39.9256,9.6572,74.98,67,76,IT,3.58,broken clouds
523,Roald,62.5833,6.1333,54.0,76,75,NO,8.05,broken clouds
524,Ouango,4.3133,22.5552,68.83,91,100,CF,1.72,overcast clouds
525,Panjakent,39.4952,67.6093,73.2,37,1,TJ,5.48,clear sky
526,Naples,40.8333,14.25,83.57,78,0,IT,3.0,clear sky
527,Bo Phloi,14.3236,99.5161,82.31,73,100,TH,5.99,overcast clouds
528,Te Anau,-45.4167,167.7167,44.2,90,99,NZ,1.95,moderate rain
529,The Valley,18.217,-63.0578,84.81,74,20,AI,14.97,few clouds
530,Ahipara,-35.1667,173.1667,57.09,77,66,NZ,10.8,broken clouds
531,Nawa,27.0167,75.0,76.42,90,95,IN,14.18,overcast clouds
532,Guozhen,34.3659,107.359,77.49,49,8,CN,2.33,clear sky
533,Bonavista,48.6499,-53.1147,69.8,72,93,CA,19.98,overcast clouds
534,Aktau,43.65,51.2,79.38,33,4,KZ,9.51,clear sky
535,Tarumovka,44.0761,46.5361,74.28,63,80,RU,9.6,broken clouds
536,Werda,-25.2667,23.2833,53.8,30,0,BW,5.46,clear sky
537,Barguzin,53.6167,109.6167,58.53,83,8,RU,1.61,clear sky
538,Katunino,64.3862,40.6298,60.69,87,100,RU,4.43,moderate rain
539,Lola,7.8,-8.5333,68.83,99,95,GN,2.75,overcast clouds
540,Kodinsk,58.6881,99.1844,56.68,99,100,RU,5.32,overcast clouds
541,Yulara,-25.2406,130.9889,48.04,53,0,AU,8.05,clear sky
542,Homer,59.6425,-151.5483,73.08,59,41,US,3.22,scattered clouds
543,Le Moule,16.3332,-61.3473,84.24,72,7,GP,10.56,clear sky
544,Quelimane,-17.8786,36.8883,66.15,82,0,MZ,0.0,clear sky
545,Roanoke Rapids,36.4615,-77.6542,86.45,89,1,US,0.0,clear sky
546,Tommot,58.9564,126.2925,56.16,97,100,RU,7.34,moderate rain
547,Manavalakurichi,8.1333,77.3,78.89,78,99,IN,16.15,overcast clouds
548,Korla,41.7597,86.1469,75.42,18,100,CN,6.49,overcast clouds
549,Kerema,-7.9631,145.7785,76.55,81,91,PG,4.05,overcast clouds
550,Redmond,47.674,-122.1215,86.41,55,100,US,1.01,overcast clouds
551,Bloomingdale,27.8936,-82.2404,94.21,69,1,US,3.0,clear sky
552,Boddam,57.4667,-1.7833,55.09,80,46,GB,10.4,scattered clouds
553,Harper,4.375,-7.7169,76.41,78,84,LR,6.58,broken clouds
554,Ibra,22.6906,58.5334,86.86,50,100,OM,3.6,overcast clouds
555,Krems,48.4092,15.6142,63.54,91,100,AT,8.48,moderate rain
556,Takoradi,4.8845,-1.7554,75.51,89,19,GH,5.57,few clouds
557,Banda Aceh,5.5577,95.3222,79.74,73,99,ID,15.48,overcast clouds
558,Cape Canaveral,28.4058,-80.6048,95.05,76,75,US,10.36,broken clouds
559,Durban,-29.8579,31.0292,66.02,40,46,ZA,3.0,scattered clouds
560,Coahuayana,18.7333,-103.6833,90.5,61,8,MX,6.15,clear sky
561,Yanam,16.7333,82.2167,83.48,62,100,IN,4.97,overcast clouds
562,Wao,7.6833,124.6833,65.89,93,100,PH,1.68,overcast clouds
563,Krasnoselkup,65.7,82.4667,53.56,79,100,RU,5.79,overcast clouds
564,Mingaora,34.7758,72.3625,72.48,90,93,PK,5.73,overcast clouds
565,Lasa,46.6166,10.7002,54.63,95,83,IT,6.76,broken clouds
566,Aswan,24.0934,32.907,96.1,12,0,EG,3.44,clear sky
567,Sinnamary,5.3833,-52.95,79.56,80,54,GF,7.96,broken clouds
568,Pierre,44.3683,-100.351,89.28,30,0,US,1.01,clear sky
569,Salinopolis,-0.6136,-47.3561,78.35,81,65,BR,10.29,broken clouds
570,Manokwari,-0.8667,134.0833,78.64,81,91,ID,3.44,overcast clouds
571,Santa Cruz,-17.8,-63.1667,69.55,21,99,BO,11.68,overcast clouds
572,Ormara,25.2088,64.6357,81.43,85,98,PK,16.13,overcast clouds
573,Trincomalee,8.5711,81.2335,81.3,75,100,LK,20.69,overcast clouds
574,Abha,18.2164,42.5053,64.65,70,97,SA,3.09,overcast clouds
575,Kjollefjord,70.9457,27.3465,44.56,92,100,NO,17.38,overcast clouds
576,Santa Cruz Del Sur,20.7147,-77.9956,86.41,67,5,CU,5.55,light rain
577,Saint George,37.1041,-113.5841,97.79,26,3,US,1.99,clear sky
578,Masallatah,32.6167,14.0,84.4,36,0,LY,8.16,clear sky
579,Talnakh,69.4865,88.3972,55.44,89,100,RU,4.59,overcast clouds
580,Kargopol,61.5071,38.9456,55.85,99,80,RU,6.13,broken clouds
581,Baykit,61.67,96.37,58.46,94,100,RU,1.83,overcast clouds
582,Ellisras,-23.6649,27.7443,52.43,32,0,ZA,5.01,clear sky
583,Esil,51.9556,66.4042,71.24,62,6,KZ,4.47,clear sky
584,Japura,-0.3167,102.35,73.2,97,82,ID,2.75,broken clouds
585,Aban,56.67,96.06,52.97,96,91,RU,3.69,overcast clouds
586,Longhua,23.6137,114.1919,78.17,96,88,CN,0.65,overcast clouds
587,Acapulco,16.8634,-99.8901,87.53,67,95,MX,8.84,overcast clouds
588,Kuytun,54.3419,101.5036,54.93,96,100,RU,11.01,light rain
589,Kincardine,56.0667,-3.7167,59.56,78,99,GB,3.49,overcast clouds
590,Prince Rupert,54.3161,-130.3201,60.89,93,90,CA,4.61,overcast clouds
591,Lampazos De Naranjo,27.0167,-100.5167,101.39,25,2,MX,16.24,clear sky
592,Kiama,-34.6833,150.8667,51.01,91,6,AU,4.16,clear sky
593,Neiafu,-18.65,-173.9833,76.71,60,83,TO,24.0,broken clouds
594,Yangjiang,21.85,111.9667,79.09,90,98,CN,3.67,overcast clouds
595,Pokhara,28.2333,83.9833,72.1,91,53,NP,1.88,broken clouds
596,Omsukchan,62.5333,155.8,34.74,100,100,RU,8.72,light rain
597,Geraldton,-28.7667,114.6,45.01,93,40,AU,10.36,scattered clouds
598,Yokadouma,3.5167,15.05,69.17,99,100,CM,2.01,light rain
599,Esperance,-33.8667,121.9,51.64,64,56,AU,23.02,broken clouds
600,La Rioja,42.25,-2.5,55.18,84,9,ES,4.14,clear sky
601,Skjervoy,70.0311,20.9714,47.86,70,71,NO,4.32,broken clouds
602,Kyra,49.5776,111.9753,53.2,87,27,RU,1.66,scattered clouds
603,Cabo San Lucas,22.8909,-109.9124,93.61,70,66,MX,1.99,broken clouds
604,Athabasca,54.7169,-113.2854,98.37,16,86,CA,2.15,overcast clouds
605,Nelson,-41.2833,173.2833,53.69,94,77,NZ,1.01,broken clouds
606,Tulum,20.2167,-87.4667,89.92,59,64,MX,6.85,broken clouds
607,Asau,46.4333,26.4,74.32,84,0,RO,5.17,clear sky
608,Seoul,37.5683,126.9778,78.19,94,90,KR,2.3,light rain
609,Komsomolskiy,40.4272,71.7189,79.52,34,100,UZ,2.3,overcast clouds
610,Eyl,7.9803,49.8164,82.26,63,49,SO,29.8,scattered clouds
611,Tuatapere,-46.1333,167.6833,42.82,89,100,NZ,4.21,heavy intensity rain
612,Mapimi,25.8167,-103.85,89.17,28,71,MX,7.16,broken clouds
613,Lusambo,-4.9667,23.45,77.11,29,90,CD,1.43,overcast clouds
614,Ratnagiri,16.9833,73.3,79.34,84,92,IN,16.46,overcast clouds
615,Boralday,43.3578,76.8594,64.26,52,40,KZ,2.24,scattered clouds
616,Cajazeiras,-6.8903,-38.5553,76.23,54,20,BR,10.27,few clouds
617,Bogatyye Saby,56.0102,50.4483,61.77,72,45,RU,5.41,scattered clouds
618,Lysyye Gory,51.5506,44.8414,72.63,65,6,RU,3.58,clear sky
619,Gushikawa,26.3544,127.8686,81.63,88,96,JP,13.62,overcast clouds
620,Siero,43.3833,-5.6667,67.6,85,60,ES,2.13,broken clouds
621,San Jose,37.3394,-121.895,90.88,57,1,US,11.5,clear sky
622,Ejura,7.3856,-1.3562,71.96,91,39,GH,4.52,scattered clouds
623,Tabuk,17.4189,121.4443,77.34,85,100,PH,2.08,overcast clouds
624,Nadym,65.5333,72.5167,56.89,91,100,RU,10.98,light rain
625,Haapiti,-17.5667,-149.8667,80.33,62,31,PF,8.14,scattered clouds
626,Saint-Joseph,-21.3667,55.6167,66.56,74,37,RE,9.13,scattered clouds
627,Nauta,-4.5061,-73.5757,82.13,59,58,PE,1.61,broken clouds
628,Presidente Medici,-11.1753,-61.9014,83.28,26,3,BR,3.44,clear sky
629,Xingcheng,40.6167,120.7167,70.48,82,7,CN,11.16,clear sky
630,Saint-Pierre,-21.3393,55.4781,67.64,67,20,RE,5.75,few clouds
631,San Francisco,37.7749,-122.4194,90.99,71,6,US,4.0,clear sky
632,Kota Belud,6.351,116.4305,75.06,80,100,MY,7.67,overcast clouds
633,Matamoros,25.5333,-103.25,93.11,32,6,MX,11.61,clear sky
634,Fare,-16.7,-151.0167,77.05,68,48,PF,12.93,scattered clouds
635,Floro,61.5996,5.0328,55.47,66,1,NO,16.11,clear sky
636,Hudiksvall,61.729,17.1036,54.52,75,100,SE,4.63,overcast clouds
637,Winnemucca,40.973,-117.7357,87.12,24,84,US,8.9,broken clouds
638,Orcopampa,-15.2661,-72.3417,52.63,36,51,PE,6.76,broken clouds
639,Ust-Nera,64.5667,143.2,52.0,62,1,RU,4.29,clear sky
640,Tuyen Quang,21.8233,105.2181,76.75,98,100,VN,1.72,overcast clouds
641,Ullapool,57.8987,-5.1604,54.75,86,40,GB,2.08,scattered clouds
642,Sembe,1.6481,14.5806,70.92,94,78,CG,1.45,broken clouds
643,Oyama,36.3,139.8,84.58,74,27,JP,4.9,scattered clouds
644,Taldan,53.6667,124.8,51.46,96,49,RU,4.52,scattered clouds
645,Kenai,60.5544,-151.2583,73.02,72,14,US,7.85,few clouds
646,Resistencia,-27.4606,-58.9839,69.78,40,0,AR,6.91,clear sky
647,Odweyne,9.4092,45.064,72.46,53,7,SO,16.51,clear sky
648,Yerbogachen,61.2767,108.0108,59.52,65,100,RU,5.19,overcast clouds
649,Rocha,-34.4833,-54.3333,46.08,93,2,UY,4.25,clear sky
650,Outjo,-20.1167,16.15,56.88,30,0,NA,9.46,clear sky
651,Dicabisagan,17.0818,122.4157,81.27,81,100,PH,3.31,overcast clouds
652,Poronaysk,49.2167,143.1167,60.06,74,13,RU,4.59,few clouds
653,Mezen,65.8522,44.24,47.01,85,6,RU,4.61,clear sky
654,Santiago De Cuba,20.0247,-75.8219,89.22,71,13,CU,5.23,few clouds
655,Zlobin,45.2924,14.6541,69.39,68,20,HR,4.61,few clouds
656,Shubarkuduk,49.1447,56.4872,83.1,33,48,KZ,6.51,scattered clouds
657,Sitges,41.2351,1.8119,75.0,62,93,ES,5.26,overcast clouds
658,Digha,21.6833,87.55,82.36,82,99,IN,8.7,overcast clouds
659,Meiktila,20.8667,95.8667,74.52,91,100,MM,13.62,overcast clouds
660,Isla Mujeres,21.2311,-86.731,87.17,68,0,MX,10.85,clear sky
661,Hobyo,5.3505,48.5268,77.4,80,6,SO,22.7,clear sky
662,Akureyri,65.6835,-18.0878,59.52,76,99,IS,0.54,overcast clouds
663,Hailun,47.45,126.9333,60.33,90,100,CN,8.28,overcast clouds
664,Staryy Nadym,65.6118,72.6842,57.43,87,100,RU,10.29,light rain
665,Palampur,32.1167,76.5333,70.47,79,24,IN,3.78,few clouds
666,Saint-Augustin,51.226,-58.6502,62.89,71,88,CA,18.16,overcast clouds
667,Lagoa Da Prata,-20.0225,-45.5436,64.49,50,31,BR,4.72,scattered clouds
668,Panguna,-6.3164,155.4848,73.65,84,19,PG,1.9,few clouds
669,Okha,53.5739,142.9478,56.44,74,79,RU,7.7,broken clouds
670,Taoudenni,22.6783,-3.9836,100.22,24,97,ML,16.96,overcast clouds
671,Asyut,27.181,31.1837,91.29,16,4,EG,5.44,clear sky
672,Isabela,6.7085,121.9711,79.2,87,100,PH,4.27,light rain
673,Mangochi,-14.4782,35.2645,64.31,64,6,MW,5.1,clear sky
674,Liku,-0.7275,119.8922,74.14,90,52,ID,1.86,broken clouds
675,Hays,30.0502,-98.0336,96.8,58,22,US,5.01,few clouds
676,Kupang,-10.1667,123.5833,75.78,88,20,ID,9.22,few clouds
677,Qom,34.6401,50.8764,89.19,14,53,IR,16.58,broken clouds
678,Kungurtug,50.5994,97.5228,50.34,96,100,RU,4.88,overcast clouds
679,Tongliao,43.6125,122.2653,67.82,91,100,CN,12.01,overcast clouds
680,Yeppoon,-23.1333,150.7333,56.98,82,0,AU,4.41,clear sky
681,Kemijarvi,66.7131,27.4306,54.23,97,100,FI,3.09,light rain
682,Umm Kaddadah,13.6017,26.6876,82.35,59,15,SD,20.8,few clouds
683,Ucluelet,48.9329,-125.5528,93.04,77,17,CA,3.0,few clouds
684,Dubbo,-32.25,148.6167,39.33,100,0,AU,10.36,clear sky
685,Mombasa,-4.0547,39.6636,72.82,88,60,KE,13.53,broken clouds
686,Andenes,69.3143,16.1194,46.38,87,75,NO,11.5,broken clouds
687,Havoysund,70.9963,24.6622,45.48,80,100,NO,9.62,light rain
688,Morant Bay,17.8815,-76.4093,83.66,79,20,JM,12.82,few clouds
689,Twin Falls,42.3505,-114.6445,80.37,45,100,US,12.68,overcast clouds
690,Ilmatsalu,58.3881,26.5593,61.21,71,90,EE,5.01,overcast clouds
691,Mitsamiouli,-11.3847,43.2844,76.23,72,1,KM,4.38,clear sky
692,Penarroya-Pueblonuevo,38.3,-5.2667,73.51,30,41,ES,1.23,scattered clouds
693,Thanh Hoa,19.8,105.7667,77.54,93,98,VN,3.27,moderate rain
694,Russkoye,45.0167,34.8,69.49,64,0,UA,3.6,clear sky
695,Pizarro,4.9533,-77.366,81.37,80,84,CO,7.83,broken clouds
696,Sarakhs,36.5449,61.1577,78.28,16,0,IR,10.33,clear sky
697,Visby,57.6409,18.296,64.85,72,20,SE,10.36,few clouds
698,Tres Lagoas,-20.7511,-51.6783,67.08,42,88,BR,7.56,overcast clouds
699,Malabor,11.2729,122.0466,81.97,83,100,PH,11.23,overcast clouds
700,Taksimo,56.3444,114.8794,54.27,96,100,RU,2.66,light rain
701,Kalevala,65.2,31.1667,56.86,92,96,RU,5.14,overcast clouds
702,Dunedin,-45.8742,170.5036,49.8,77,98,NZ,21.99,overcast clouds
703,Patitirion,39.15,23.8667,87.37,63,0,GR,4.23,clear sky
704,Gamba,-2.65,10.0,73.98,83,100,GA,8.68,overcast clouds
705,Despotovac,44.0925,21.4469,78.93,37,10,RS,5.53,clear sky
706,Pajapan,18.25,-94.7,84.7,65,95,MX,8.57,overcast clouds
707,Grand-Santi,4.25,-54.3833,75.4,94,100,GF,2.39,moderate rain
708,Cayenne,4.9333,-52.3333,84.24,79,0,GF,3.0,clear sky
709,Saint Anthony,45.0205,-93.218,80.94,38,75,US,4.0,broken clouds
710,Archidona,37.0965,-4.3887,71.42,25,46,ES,2.17,scattered clouds
711,Sharjah,25.3573,55.4033,93.25,56,40,AE,9.13,scattered clouds
712,Nazare,-13.035,-39.0144,66.65,94,62,BR,5.39,broken clouds
713,Turbat,26.0023,63.044,89.06,61,99,PK,7.49,overcast clouds
714,Kladno,50.1473,14.1029,60.93,90,20,CZ,12.66,few clouds
715,Tanout,14.9709,8.8879,90.39,41,97,NE,10.76,overcast clouds
716,Vysha,53.8477,42.3777,69.46,61,71,RU,6.44,broken clouds
717,Luziania,-16.2525,-47.9503,70.99,46,16,BR,6.24,few clouds
718,Inowroclaw,52.7989,18.2639,61.9,84,100,PL,4.9,overcast clouds
719,Havre,49.5833,0.3333,60.57,88,75,FR,3.44,broken clouds
720,Muzhi,65.3667,64.6667,50.22,96,60,RU,2.42,broken clouds
721,Lixourion,38.2019,20.4314,83.03,47,0,GR,2.35,clear sky
